[
  {
    "slug": "amsterdam",
    "name": "Amsterdam",
    "country": "Netherlands",
    "flag": "🇳🇱",
    "categoryCount": 5,
    "heroImage": "/images/destinations/amsterdam.jpg",
    "intro": "Amsterdam is one of Europe's most dog-friendly cities, with parks, canals, and welcoming hotels.",
    "lat": 52.3702,
    "lng": 4.8952,
    "stay22MapId": "69e0de364d607cd67c111251"
  },
  {
    "slug": "paris",
    "name": "Paris",
    "country": "France",
    "flag": "🇫🇷",
    "categoryCount": 5,
    "heroImage": "/images/destinations/paris.jpg",
    "intro": "Paris welcomes pets in many hotels, cafés, and even some restaurants.",
    "lat": 48.8566,
    "lng": 2.3522
  },
  {
    "slug": "biarritz",
    "name": "Biarritz",
    "country": "France",
    "flag": "🇫🇷",
    "categoryCount": 6,
    "heroImage": "/images/destinations/biarritz.jpg",
    "intro": "Biarritz is a paradise for dogs and their owners, with beach access and pet-friendly hotels.",
    "lat": 43.4832,
    "lng": -1.5586
  },
  {
    "slug": "barcelona",
    "name": "Barcelona",
    "country": "Spain",
    "flag": "🇪🇸",
    "categoryCount": 6,
    "heroImage": "/images/destinations/barcelona.jpg",
    "intro": "Barcelona has a growing pet-friendly scene with many hotels welcoming dogs of all sizes.",
    "lat": 41.3851,
    "lng": 2.1734
  },
  {
    "slug": "berlin",
    "name": "Berlin",
    "country": "Germany",
    "flag": "🇩🇪",
    "categoryCount": 5,
    "heroImage": "/images/destinations/berlin.jpg",
    "intro": "Berlin is one of the most dog-friendly capitals in Europe, with extensive parks and pet-welcoming accommodation.",
    "lat": 52.52,
    "lng": 13.405
  },
  {
    "slug": "lisbon",
    "name": "Lisbon",
    "country": "Portugal",
    "flag": "🇵🇹",
    "categoryCount": 5,
    "heroImage": "/images/destinations/lisbon.jpg",
    "intro": "Lisbon's mild climate and relaxed culture make it ideal for travelling with your pet.",
    "lat": 38.7169,
    "lng": -9.1399
  },
  {
    "slug": "rome",
    "name": "Rome",
    "country": "Italy",
    "flag": "🇮🇹",
    "categoryCount": 5,
    "heroImage": "/images/destinations/rome.jpg",
    "intro": "Rome combines ancient grandeur with a surprisingly relaxed attitude toward pets — dogs are welcome in many piazzas, parks, and hotel terraces.",
    "lat": 41.9028,
    "lng": 12.4964
  },
  {
    "slug": "madrid",
    "name": "Madrid",
    "country": "Spain",
    "flag": "🇪🇸",
    "categoryCount": 5,
    "heroImage": "/images/destinations/madrid.jpg",
    "intro": "Madrid is one of Europe's most dog-friendly capitals, with sprawling parks, dog-welcoming terraces, and a thriving pet culture.",
    "lat": 40.4168,
    "lng": -3.7038
  },
  {
    "slug": "prague",
    "name": "Prague",
    "country": "Czech Republic",
    "flag": "🇨🇿",
    "categoryCount": 5,
    "heroImage": "/images/destinations/prague.jpg",
    "intro": "Prague's compact old town and riverside parks make it an underrated gem for travelling with dogs.",
    "lat": 50.0755,
    "lng": 14.4378
  },
  {
    "slug": "vienna",
    "name": "Vienna",
    "country": "Austria",
    "flag": "🇦🇹",
    "categoryCount": 5,
    "heroImage": "/images/destinations/vienna.jpg",
    "intro": "Vienna's grand parks, dog-friendly cafés, and highly-rated hotels make it a top destination for pet owners in Central Europe.",
    "lat": 48.2082,
    "lng": 16.3738
  },
  {
    "slug": "copenhagen",
    "name": "Copenhagen",
    "country": "Denmark",
    "flag": "🇩🇰",
    "categoryCount": 5,
    "heroImage": "/images/destinations/copenhagen.jpg",
    "intro": "Copenhagen leads Europe in sustainability and pet-friendliness — dogs are welcomed in shops, restaurants, and on public transport.",
    "lat": 55.6761,
    "lng": 12.5683
  },
  {
    "slug": "stockholm",
    "name": "Stockholm",
    "country": "Sweden",
    "flag": "🇸🇪",
    "categoryCount": 5,
    "heroImage": "/images/destinations/stockholm.jpg",
    "intro": "Stockholm's archipelago setting, vast green spaces, and dog-welcoming culture make it one of Scandinavia's best cities for pet travel.",
    "lat": 59.3293,
    "lng": 18.0686
  },
  {
    "slug": "munich",
    "name": "Munich",
    "country": "Germany",
    "flag": "🇩🇪",
    "categoryCount": 5,
    "heroImage": "/images/destinations/munich.jpg",
    "intro": "Munich's English Garden, beer garden culture (dogs welcome), and excellent hotels make it ideal for a city break with your pet.",
    "lat": 48.1351,
    "lng": 11.582
  },
  {
    "slug": "zurich",
    "name": "Zurich",
    "country": "Switzerland",
    "flag": "🇨🇭",
    "categoryCount": 5,
    "heroImage": "/images/destinations/zurich.jpg",
    "intro": "Zurich has some of Europe's highest standards for pet welfare — dogs ride trams, enter shops, and are welcomed in many top hotels.",
    "lat": 47.3769,
    "lng": 8.5417
  },
  {
    "slug": "nice",
    "name": "Nice",
    "country": "France",
    "flag": "🇫🇷",
    "categoryCount": 6,
    "heroImage": "/images/destinations/nice.jpg",
    "intro": "Nice's Mediterranean climate, Promenade des Anglais, and abundance of terrace restaurants make it a superb destination for pets year-round.",
    "lat": 43.7102,
    "lng": 7.262
  },
  {
    "slug": "bordeaux",
    "name": "Bordeaux",
    "country": "France",
    "flag": "🇫🇷",
    "categoryCount": 5,
    "heroImage": "/images/destinations/bordeaux.jpg",
    "intro": "Bordeaux pairs world-class wine country with a relaxed, dog-friendly urban culture and excellent boutique hotels.",
    "lat": 44.8378,
    "lng": -0.5792
  },
  {
    "slug": "lyon",
    "name": "Lyon",
    "country": "France",
    "flag": "🇫🇷",
    "categoryCount": 5,
    "heroImage": "/images/destinations/lyon.jpg",
    "intro": "Lyon's gastronomic culture extends to its terrace restaurants and bouchons, many of which welcome well-behaved dogs.",
    "lat": 45.764,
    "lng": 4.8357
  },
  {
    "slug": "bruges",
    "name": "Bruges",
    "country": "Belgium",
    "flag": "🇧🇪",
    "categoryCount": 5,
    "heroImage": "/images/destinations/bruges.jpg",
    "intro": "Bruges is one of Belgium's most charming cities for a pet-friendly break — canals, quiet cobblestone streets, and welcoming hotels.",
    "lat": 51.2093,
    "lng": 3.2247
  },
  {
    "slug": "budapest",
    "name": "Budapest",
    "country": "Hungary",
    "flag": "🇭🇺",
    "categoryCount": 5,
    "heroImage": "/images/destinations/budapest.jpg",
    "intro": "Budapest's riverside parks, thermal bath culture, and affordable luxury hotels make it a rising star for pet-friendly travel in Eastern Europe.",
    "lat": 47.4979,
    "lng": 19.0402
  },
  {
    "slug": "dubrovnik",
    "name": "Dubrovnik",
    "country": "Croatia",
    "flag": "🇭🇷",
    "categoryCount": 6,
    "heroImage": "/images/destinations/dubrovnik.jpg",
    "intro": "Dubrovnik's dramatic coastline, island day-trips, and boutique hotels outside the Old Town walls offer a memorable setting for pet owners.",
    "lat": 42.6507,
    "lng": 18.0944
  },
  {
    "slug": "porto",
    "name": "Porto",
    "country": "Portugal",
    "flag": "🇵🇹",
    "categoryCount": 5,
    "heroImage": "/images/destinations/porto.jpg",
    "intro": "Porto's hilly streets, river esplanades, and laid-back attitude make it one of Portugal's most welcoming cities for travelling with a dog.",
    "lat": 41.1579,
    "lng": -8.6291
  },
  {
    "slug": "seville",
    "name": "Seville",
    "country": "Spain",
    "flag": "🇪🇸",
    "categoryCount": 5,
    "heroImage": "/images/destinations/seville.jpg",
    "intro": "Seville's orange-tree lined streets, riverside promenades, and vibrant terrace culture make it one of Andalusia's most dog-friendly cities.",
    "lat": 37.3886,
    "lng": -5.9823
  },
  {
    "slug": "valencia",
    "name": "Valencia",
    "country": "Spain",
    "flag": "🇪🇸",
    "categoryCount": 6,
    "heroImage": "/images/destinations/valencia.jpg",
    "intro": "Valencia's sunny climate, Turia river park, and dog-welcoming beaches make it a superb year-round destination for pet travel.",
    "lat": 39.4699,
    "lng": -0.3763
  },
  {
    "slug": "malaga",
    "name": "Malaga",
    "country": "Spain",
    "flag": "🇪🇸",
    "categoryCount": 6,
    "heroImage": "/images/destinations/malaga.jpg",
    "intro": "Malaga combines a sunny Mediterranean climate with a relaxed attitude toward dogs — ideal for a beach-and-city break with your pet.",
    "lat": 36.7213,
    "lng": -4.4213
  },
  {
    "slug": "florence",
    "name": "Florence",
    "country": "Italy",
    "flag": "🇮🇹",
    "categoryCount": 5,
    "heroImage": "/images/destinations/florence.jpg",
    "intro": "Florence's Renaissance beauty is matched by a surprisingly welcoming attitude toward dogs — in restaurants, on the Arno riverbanks, and in the Boboli gardens.",
    "lat": 43.7696,
    "lng": 11.2558
  },
  {
    "slug": "venice",
    "name": "Venice",
    "country": "Italy",
    "flag": "🇮🇹",
    "categoryCount": 5,
    "heroImage": "/images/destinations/venice.jpg",
    "intro": "Venice is surprisingly dog-friendly — dogs travel on the vaporetto, explore quiet campi, and are welcomed in many trattorias.",
    "lat": 45.4408,
    "lng": 12.3155
  },
  {
    "slug": "ghent",
    "name": "Ghent",
    "country": "Belgium",
    "flag": "🇧🇪",
    "categoryCount": 5,
    "heroImage": "/images/destinations/ghent.jpg",
    "intro": "Ghent is one of Belgium's most progressive cities — a strong cycling and pet culture, compact centre, and excellent hotels make it ideal for dog owners.",
    "lat": 51.0543,
    "lng": 3.7174
  },
  {
    "slug": "antwerp",
    "name": "Antwerp",
    "country": "Belgium",
    "flag": "🇧🇪",
    "categoryCount": 5,
    "heroImage": "/images/destinations/antwerp.jpg",
    "intro": "Antwerp's fashion-forward, dog-welcoming culture, riverside parks, and boutique hotel scene make it Belgium's most exciting city for pet travel.",
    "lat": 51.2194,
    "lng": 4.4025
  },
  {
    "slug": "edinburgh",
    "name": "Edinburgh",
    "country": "United Kingdom",
    "flag": "🏴󠁧󠁢󠁳󠁣󠁴󠁿",
    "categoryCount": 5,
    "heroImage": "/images/destinations/edinburgh.jpg",
    "intro": "Edinburgh's dramatic hills, Arthur's Seat, and deeply dog-welcoming pub culture make it one of Britain's best cities for a break with your dog.",
    "lat": 55.9533,
    "lng": -3.1883
  },
  {
    "slug": "dublin",
    "name": "Dublin",
    "country": "Ireland",
    "flag": "🇮🇪",
    "categoryCount": 5,
    "heroImage": "/images/destinations/dublin.jpg",
    "intro": "Dublin's pub gardens, Phoenix Park, and warm Irish welcome extend to dogs — making it one of the most dog-friendly capitals in Europe.",
    "lat": 53.3498,
    "lng": -6.2603
  },
  {
    "slug": "reykjavik",
    "name": "Reykjavik",
    "country": "Iceland",
    "flag": "🇮🇸",
    "categoryCount": 5,
    "heroImage": "/images/destinations/reykjavik.jpg",
    "intro": "Reykjavik's clean air, dramatic landscapes, and dog-welcoming culture make it a unique and increasingly popular destination for adventurous pet owners.",
    "lat": 64.1355,
    "lng": -21.8954
  },
  {
    "slug": "ljubljana",
    "name": "Ljubljana",
    "country": "Slovenia",
    "flag": "🇸🇮",
    "categoryCount": 5,
    "heroImage": "/images/destinations/ljubljana.jpg",
    "intro": "Ljubljana — Europe's green capital — is one of the continent's most walkable, bike-friendly, and dog-welcoming small cities.",
    "lat": 46.0569,
    "lng": 14.5058
  },
  {
    "slug": "riga",
    "name": "Riga",
    "country": "Latvia",
    "flag": "🇱🇻",
    "categoryCount": 5,
    "heroImage": "/images/destinations/riga.jpg",
    "intro": "Riga's Art Nouveau architecture, riverside parks, and affordable hotels make it an emerging gem for pet-friendly city breaks in the Baltics.",
    "lat": 56.9496,
    "lng": 24.1052
  },
  {
    "slug": "tallinn",
    "name": "Tallinn",
    "country": "Estonia",
    "flag": "🇪🇪",
    "categoryCount": 5,
    "heroImage": "/images/destinations/tallinn.jpg",
    "intro": "Tallinn's beautifully preserved medieval old town, coastal paths, and dog-friendly hotels make it a hidden gem for pet travel in Northern Europe.",
    "lat": 59.437,
    "lng": 24.7536
  },
  {
    "slug": "milan",
    "name": "Milan",
    "country": "Italy",
    "flag": "🇮🇹",
    "categoryCount": 5,
    "intro": "Milan is Italy's fashion and design capital, where sleek hotels increasingly cater to pet owners travelling for business and leisure.",
    "lat": 45.4654,
    "lng": 9.1859
  },
  {
    "slug": "warsaw",
    "name": "Warsaw",
    "country": "Poland",
    "flag": "🇵🇱",
    "categoryCount": 5,
    "intro": "Warsaw is a rapidly modernising capital where pet-friendly hotels are becoming the norm, with great parks and riverside paths for dogs.",
    "lat": 52.2297,
    "lng": 21.0122
  },
  {
    "slug": "krakow",
    "name": "Krakow",
    "country": "Poland",
    "flag": "🇵🇱",
    "categoryCount": 5,
    "intro": "Krakow's historic old town and sweeping Planty park ring make it one of Poland's best cities for travelling with a dog.",
    "lat": 50.0647,
    "lng": 19.9450
  },
  {
    "slug": "brussels",
    "name": "Brussels",
    "country": "Belgium",
    "flag": "🇧🇪",
    "categoryCount": 5,
    "intro": "Brussels is an underrated pet travel destination, with spacious parks, a compact walkable centre, and hotels that genuinely welcome animals.",
    "lat": 50.8503,
    "lng": 4.3517
  },
  {
    "slug": "athens",
    "name": "Athens",
    "country": "Greece",
    "flag": "🇬🇷",
    "categoryCount": 5,
    "intro": "Athens surprises pet travellers with its mild climate, walkable neighbourhoods, and a growing number of boutique hotels that welcome dogs year-round.",
    "lat": 37.9838,
    "lng": 23.7275
  },
  {
    "slug": "split",
    "name": "Split",
    "country": "Croatia",
    "flag": "🇭🇷",
    "categoryCount": 5,
    "intro": "Split's Adriatic waterfront, historic Diocletian's Palace, and relaxed Croatian attitude make it a fantastic destination for pet owners.",
    "lat": 43.5081,
    "lng": 16.4402
  },
  {
    "slug": "oslo",
    "name": "Oslo",
    "country": "Norway",
    "flag": "🇳🇴",
    "categoryCount": 5,
    "intro": "Oslo's proximity to fjords, forests, and the Oslomarka trail network makes it one of Scandinavia's top destinations for active pet owners.",
    "lat": 59.9139,
    "lng": 10.7522
  },
  {
    "slug": "helsinki",
    "name": "Helsinki",
    "country": "Finland",
    "flag": "🇫🇮",
    "categoryCount": 5,
    "intro": "Helsinki's island archipelago, pine forests, and culture of outdoors living make it exceptionally welcoming for dogs and their owners.",
    "lat": 60.1699,
    "lng": 24.9384
  },
  {
    "slug": "salzburg",
    "name": "Salzburg",
    "country": "Austria",
    "flag": "🇦🇹",
    "categoryCount": 5,
    "intro": "Salzburg's Alpine setting, Mozart-era architecture, and rolling meadows make it a magical destination for pet owners exploring Austria.",
    "lat": 47.8095,
    "lng": 13.0550
  }
]